[{"id":"00014645-38c8-4eb4-ad9b-faa871d7e511","name":"R5小餐館","city":"chiayi","wifi":5,"seat":5,"quiet":5,"tasty":5,"cheap":5,"music":5,"url":"https://www.facebook.com/r5.bistro","address":"嘉義市東區忠孝路205號","latitude":"23.48386540","longitude":"120.45358340","limited_time":"maybe","socket":"maybe","standing_desk":"no","mrt":"","open_time":"11:30~21:00"},
{"id":"000703fe-cf8a-43c8-bd83-c90cfd61915f","name":"\bTHT唱片","city":"taipei","wifi":0,"seat":4.5,"quiet":3,"tasty":5,"cheap":4,"music":4,"url":"https://www.facebook.com/honeycombcafe2016/","address":"新北市永和區永貞路214號","latitude":"25.00409680","longitude":"121.51528650","limited_time":"no","socket":"no","standing_desk":"yes","mrt":"永安市場站","open_time":"雙週四公休，有變更另外公告"},
{"id":"003c1c71-b6c9-4257-8722-54307a2281be","name":"123","city":"kaohsiung","wifi":4,"seat":5,"quiet":4,"tasty":5,"cheap":5,"music":5,"url":"https://www.facebook.com/fuelwoodcafe/","address":"新北市前鎮區復興三路311-14號","latitude":"22.58304500","longitude":"120.33590010","limited_time":"no","socket":"maybe","standing_desk":"yes","mrt":"「草衙站2號出口」出來後左轉，直行約600公尺","open_time":""},
{"id":"004c4a03-ca13-4eaa-8c67-c4199ff374df","name":"窩柢咖啡","city":"taichung","wifi":5,"seat":4,"quiet":4,"tasty":5,"cheap":4,"music":5,"url":"https://www.facebook.com/WoDihouse/","address":"台中市西屯區杏林路27號","latitude":"24.16777300","longitude":"120.64203940","limited_time":"","socket":"yes","standing_desk":"","mrt":"","open_time":"低消一杯飲品/人。禁用外食"},
{"id":"00544d87-9d8f-4910-88e6-79aa69c5b447","name":"咖啡林咖啡 ","city":"kaohsiung","wifi":4.5,"seat":4,"quiet":3.5,"tasty":5,"cheap":4,"music":4.5,"url":"https://www.facebook.com/coffeelingcafe/","address":"高雄市三民區鼎祥街12號","latitude":"22.66538400","longitude":"120.31573100","limited_time":"maybe","socket":"yes","standing_desk":"no","mrt":"","open_time":"12:00-24:00"},
{"id":"005a5ee9-7460-4f8a-b965-8b9565ee1e4e","name":"一杯咖啡士林店","city":"taipei","wifi":0,"seat":0,"quiet":0,"tasty":0,"cheap":0,"music":0,"url":"https://www.facebook.com/acupofcoffeeshilin/","address":"台北市士林區中山北路五段505巷36號","latitude":"25.09302050","longitude":"121.52667780","limited_time":"no","socket":"yes","standing_desk":"yes","mrt":"","open_time":""}, 
{"id":"01b2cdcc-06bf-4fac-99d0-c1890346383a","name":"MISS.CAFE覓食點咖啡","city":"taipei","wifi":5,"seat":5,"quiet":3,"tasty":5,"cheap":5,"music":4,"url":"","address":"241新北市三重區三和路三段26號","latitude":"25.07039460","longitude":"121.49649120","limited_time":"maybe","socket":"no","standing_desk":"yes","mrt":"","open_time":""},{"id":"01be1d96-beb3-4471-889a-e550c99ea442","name":"艸地掛","city":"taipei","wifi":4,"seat":5,"quiet":5,"tasty":5,"cheap":0,"music":0,"url":"https://www.facebook.com/caffeterrataipei/?modal=admin_todo_tour","address":"新北市汐止區建成路178巷6號1樓","latitude":"25.07404580","longitude":"121.66101470","limited_time":"no","socket":"yes","standing_desk":"yes","mrt":"","open_time":""},{"id":"01d1d753-face-44ed-b596-e0f34bde6822","name":"June Cafe 六月咖啡","city":"taipei","wifi":0,"seat":4,"quiet":5,"tasty":5,"cheap":5,"music":5,"url":"https://www.facebook.com/junecafe/","address":"台灣台北市中山區中山北路二段62巷24號","latitude":"25.05665900","longitude":"121.52138500","limited_time":"maybe","socket":"","standing_desk":"","mrt":"雙連一號出口","open_time":""},{"id":"01df22dc-8a44-41b9-9599-2b6f544bab90","name":"Mase Cafe 咖啡專門店","city":"taipei","wifi":5,"seat":5,"quiet":4,"tasty":5,"cheap":5,"music":4,"url":"https://www.facebook.com/160578991299565/","address":"台北市八德路二段300巷38號","latitude":"25.04612320","longitude":"121.54237240","limited_time":"no","socket":"yes","standing_desk":"no","mrt":"忠孝復興","open_time":""},{"id":"0202cdb3-f889-4bf6-8048-04a41c4234f8","name":"Irga 就此耶加烘豆坊（自家烘焙咖啡）","city":"taipei","wifi":0,"seat":0,"quiet":0,"tasty":0,"cheap":0,"music":0,"url":"","address":"台北市大安區麗水街7巷8號","latitude":"25.03086390","longitude":"121.52927800","limited_time":"","socket":"","standing_desk":"","mrt":"","open_time":""},{"id":"02099240-5fc8-45a1-a042-071aea5b27df","name":"Michaelis執事喫茶","city":"taichung","wifi":5,"seat":3,"quiet":4,"tasty":5,"cheap":3,"music":5,"url":"https://www.facebook.com/Michaelis.tw/","address":"台中市北區光大街26號","latitude":"24.14983000","longitude":"120.67693900","limited_time":"maybe","socket":"yes","standing_desk":"no","mrt":"","open_time":"12:00-17:40、18:30-20:30"},{"id":"020b7dd9-91de-4781-a362-9ca9b690c1bc","name":"歐豆麥","city":"taipei","wifi":5,"seat":4,"quiet":4.5,"tasty":4,"cheap":5,"music":5,"url":"https://www.facebook.com/odovai24082461/","address":"新北市金山區仁愛路3號","latitude":"25.21946260","longitude":"121.63785930","limited_time":"no","socket":"maybe","standing_desk":"no","mrt":"","open_time":""},{"id":"021ec6ad-4b10-4f91-8e50-48b7271fd2dd","name":"小小蔬房","city":"taipei","wifi":5,"seat":3,"quiet":3,"tasty":5,"cheap":4,"music":5,"url":"https://www.facebook.com/xiaoxiaoplace/","address":"台北市漢口街二段125號","latitude":"25.04648450","longitude":"121.50400020","limited_time":"no","socket":"","standing_desk":"no","mrt":"","open_time":""}]