{"Status":"ok","row_data":[
{"id":"00014645-38c8-4eb4-ad9b-faa871d7e511","name":"R5小餐館","city":"chiayi","wifi":5,"seat":5,"quiet":5,"tasty":5,"cheap":5,"music":5,"url":"https://www.facebook.com/r5.bistro","address":"嘉義市東區忠孝路205號","latitude":"23.48386540","longitude":"120.45358340","limited_time":"maybe","socket":"maybe","standing_desk":"no","mrt":"","open_time":"11:30~21:00"}
,{"id":"000703fe-cf8a-43c8-bd83-c90cfd61915f","name":"蜂巢咖啡","city":"taipei","wifi":0,"seat":4.5,"quiet":3,"tasty":5,"cheap":4,"music":4,"url":"https://www.facebook.com/honeycombcafe2016/","address":"新北市永和區永貞路214號","latitude":"25.00409680","longitude":"121.51528650","limited_time":"no","socket":"no","standing_desk":"yes","mrt":"永安市場站","open_time":"雙週四公休，有變更另外公告"},
{"id":"feb14508-4766-4f1a-bd1c-84e023b04588","name":"WHO'S 喜象 CAFE","city":"hsinchu","wifi":4.5,"seat":4.5,"quiet":3.5,"tasty":4.5,"cheap":4.5,"music":3.5,"url":"https://www.facebook.com/WHOS-%E5%96%9C%E8%B1%A1-CAFE-164237916974403/","address":"新竹市東區寶山路438號","latitude":"24.78475360","longitude":"120.99017890","limited_time":"no","socket":"","standing_desk":"","mrt":"","open_time":""},
{"id":"0022fc3b-598f-4bb5-bb69-1b7d1b9b5202","name":"(暫停營業) The Kaffa Lovers","city":"taipei","wifi":5,"seat":5,"quiet":5,"tasty":5,"cheap":4,"music":5,"url":"https://www.facebook.com/thekaffalovers/?fref=ts","address":"台北市中正區金山北路3號","latitude":"25.04435400","longitude":"121.53045590","limited_time":"no","socket":"maybe","standing_desk":"yes","mrt":"忠孝新生","open_time":"週二至週五 10:00-19:00六日09:00-19:00 "}]}